{"type":"FeatureCollection","features":[{"type":"Feature","properties":{"title":"дрова","content":"дрова в любій кількості","type":"sell","marker":"green","area":"Kyiv"},"geometry":{"type":"Point","coordinates":[30.43899536132813,50.46875937355115]}},{"type":"Feature","properties":{"title":"тварини","type":"sell","marker":"purple","content":"тварини екзотичні оптом","area":"Kyiv"},"geometry":{"type":"Point","coordinates":[30.46285629272461,50.451929989931344]}},{"type":"Feature","properties":{"title":"літаки","content":"продажа, ремонт літаків","type":"sell","marker":"yellow","area":"Kyiv"},"geometry":{"type":"Point","coordinates":[30.392560958862305,50.458870104151565]}},{"type":"Feature","properties":{"title":"риба","content":"продам синьку оптом і в роздріб","type":"sell","marker":"grey","area":"Kyiv"},"geometry":{"type":"Point","coordinates":[30.55023193359375,50.46274956681952]}},{"type":"Feature","properties":{"marker":"blue","type":"sell","content":"продам чисту воду з висохлого озера, заряджена на успіх","title":"вода","area":"Kyiv"},"geometry":{"type":"Point","coordinates":[30.47401428222656,50.369992582877195]}},{"type":"Feature","properties":{"title":"літаки","type":"buy","content":"хочу великий","marker":"yellow","area":"Kyiv"},"geometry":{"type":"Point","coordinates":[30.43890953063965,50.407915819089794]}},{"type":"Feature","properties":{"title":"вода","content":"сушить, терміново","marker":"blue","type":"buy","area":"Kyiv"},"geometry":{"type":"Point","coordinates":[30.411186218261715,50.42678404512451]}},{"type":"Feature","properties":{"title":"їжа","content":"жрати хочу, люблю суші","marker":"grey","type":"buy","area":"Kyiv"},"geometry":{"type":"Point","coordinates":[30.524010658264164,50.44794032958957]}},{"type":"Feature","properties":{"title":"кажан","content":"хочу домашню тваринку, сумно самому","marker":"purple","type":"buy","area":"Kyiv"},"geometry":{"type":"Point","coordinates":[30.506930351257324,50.418854836700035]}},{"type":"Feature","properties":{"title":"багаття","content":"холодно тут, треба багато дров і розпалка","marker":"green","type":"buy","area":"Kyiv"},"geometry":{"type":"Point","coordinates":[30.52165031433105,50.43312645607191]}}]}